Time,sensPitch,sensRoll,sensYaw,xGyro,yGyro,ZGyro,xAcc,yAcc,zAcc,latitude,longitude,alt,cP,cR,cYI
452602774,-0.06,6.12,173.50,0.19,14.19,-1.12,-0.02,-0.33,-0.19,4713.45,849.14,1.28,0.00,0.00,0.00
452613935,0.00,6.12,173.50,-0.19,14.38,-1.25,0.08,-0.30,-0.19,4713.45,849.14,1.29,0.00,0.00,0.00
452623937,0.12,6.12,173.50,-0.62,14.44,-1.25,0.25,-0.16,-0.21,4713.45,849.14,1.28,0.00,0.00,0.00
452636743,0.44,6.12,173.50,-1.56,14.19,-0.75,0.27,-0.01,-0.25,4713.45,849.14,1.31,0.00,0.00,0.00
452646748,0.56,6.19,173.50,-1.44,14.12,-0.12,0.33,0.08,-0.23,4713.45,849.14,1.31,0.00,0.00,0.00
452657734,0.69,6.19,173.50,-1.19,13.69,0.06,0.21,0.17,-0.25,4713.45,849.14,1.31,0.00,0.00,-0.00
452667737,0.81,6.19,173.50,-0.62,13.19,-0.19,0.30,0.28,-0.34,4713.45,849.14,1.31,0.00,0.00,0.00
452677740,0.94,6.19,173.50,-0.06,13.00,-0.56,0.17,0.13,-0.35,4713.45,849.14,1.30,0.00,0.00,0.00
452687744,1.06,6.19,173.50,0.25,12.56,-1.00,0.23,0.01,-0.34,4713.45,849.14,1.30,0.00,0.00,0.00
452697747,1.19,6.19,173.50,0.50,12.38,-1.62,0.29,-0.07,-0.27,4713.45,849.14,1.30,0.00,0.00,0.00
452707749,1.31,6.19,173.50,0.44,11.94,-1.94,0.25,-0.15,-0.25,4713.45,849.14,1.30,0.00,0.00,0.00
452717753,1.44,6.19,173.44,0.56,11.38,-2.12,0.27,-0.11,-0.28,4713.45,849.14,1.30,0.00,0.00,0.00
452727757,1.56,6.19,173.44,0.38,11.19,-2.38,0.19,-0.04,-0.25,4713.45,849.14,1.30,0.00,0.00,0.00
452737762,1.69,6.19,173.44,0.50,11.00,-1.75,0.16,-0.01,-0.22,4713.45,849.14,1.32,0.00,0.00,0.00
452747764,1.75,6.19,173.44,0.81,11.00,-1.38,0.10,-0.15,-0.17,4713.45,849.14,1.31,0.00,0.00,0.00
452759282,1.88,6.12,173.44,0.69,10.88,-0.94,0.16,-0.26,-0.15,4713.45,849.14,1.31,0.00,0.00,0.00
452769285,2.00,6.12,173.44,0.44,11.06,-0.62,0.02,-0.37,-0.12,4713.45,849.14,1.32,0.00,0.00,0.00
452781806,2.12,6.12,173.44,0.19,11.12,-0.88,-0.10,-0.37,-0.17,4713.45,849.14,1.31,0.00,0.00,0.00
452793255,2.25,6.12,173.44,0.00,11.38,-1.12,-0.09,-0.36,-0.12,4713.45,849.14,1.31,0.00,0.00,0.00
452804583,2.31,6.12,173.38,-0.19,11.56,-1.44,-0.13,-0.16,-0.19,4713.45,849.14,1.31,0.00,0.00,0.00
452814588,2.44,6.12,173.38,-0.12,11.75,-1.75,-0.19,0.01,-0.21,4713.45,849.14,1.31,0.00,0.00,0.00
452824592,2.56,6.12,173.38,0.00,12.06,-1.94,-0.20,0.15,-0.20,4713.45,849.14,1.31,0.00,0.00,0.00
452834914,2.69,6.12,173.38,0.06,12.44,-1.88,-0.18,-0.00,-0.14,4713.45,849.14,1.31,0.00,0.00,0.00
452844917,2.81,6.12,173.38,0.38,13.12,-1.94,-0.15,-0.24,-0.11,4713.45,849.14,1.32,0.00,0.00,0.00
452855196,2.94,6.12,173.31,0.69,13.50,-2.75,-0.15,-0.24,-0.11,4713.45,849.14,1.32,0.00,0.00,0.00
452865199,3.06,6.12,173.31,0.50,13.75,-3.00,0.00,-0.28,-0.08,4713.45,849.14,1.31,0.00,0.00,0.00
452875202,3.19,6.12,173.31,0.12,13.69,-3.56,0.05,-0.17,-0.18,4713.45,849.14,1.31,0.00,0.00,0.00
452885212,3.38,6.12,173.25,0.06,13.62,-3.44,0.03,-0.10,-0.19,4713.45,849.14,1.32,0.00,0.00,0.00
452895215,3.50,6.12,173.25,0.25,13.50,-3.00,0.00,-0.02,-0.25,4713.45,849.14,1.31,0.00,0.00,0.00
452905218,3.62,6.12,173.25,0.44,13.62,-2.44,0.00,-0.02,-0.25,4713.45,849.14,1.31,0.00,0.00,0.00
452915221,3.75,6.12,173.19,0.62,13.50,-2.31,-0.04,-0.06,-0.21,4713.45,849.14,1.31,0.00,0.00,0.00
452925224,3.88,6.12,173.19,0.88,13.75,-2.12,0.12,-0.12,-0.27,4713.45,849.14,1.31,0.00,0.00,0.00
452935274,4.00,6.12,173.19,0.81,13.75,-2.00,0.37,-0.36,-0.21,4713.45,849.14,1.31,0.00,0.00,0.00
452945282,4.19,6.06,173.19,0.88,13.75,-1.88,0.49,-0.29,-0.16,4713.45,849.14,1.32,0.00,0.00,0.00
452956095,4.31,6.06,173.19,0.56,13.81,-1.75,0.49,-0.29,-0.16,4713.45,849.14,1.32,0.00,0.00,0.00
452966099,4.44,6.06,173.12,0.25,13.75,-1.31,0.45,-0.22,-0.18,4713.45,849.14,1.31,0.00,0.00,0.00
452976104,4.56,6.06,173.12,-0.19,13.31,-1.00,0.18,-0.29,-0.18,4713.45,849.14,1.31,0.00,0.00,0.00
452986298,4.69,6.06,173.12,-0.94,12.44,-1.69,0.26,-0.35,-0.16,4713.45,849.14,1.32,0.00,0.00,0.00
452996302,4.81,6.12,173.12,-0.94,12.44,-1.69,0.36,-0.31,-0.16,4713.45,849.14,1.31,0.00,0.00,0.00
453007543,4.94,6.06,173.12,-1.50,12.31,-2.06,0.54,-0.19,-0.17,4713.45,849.14,1.31,0.00,0.00,0.00
453017547,5.12,6.06,173.12,-1.75,11.75,-2.44,0.49,-0.10,-0.25,4713.45,849.14,1.32,0.00,0.00,0.00
453027551,5.25,6.12,173.06,-2.19,10.69,-1.94,0.45,-0.08,-0.27,4713.45,849.14,1.32,0.00,0.00,0.00
453037554,5.31,6.12,173.06,-2.31,10.31,-1.69,0.46,-0.19,-0.18,4713.45,849.14,1.32,0.00,0.00,0.00
453047569,5.44,6.12,173.06,-2.44,10.12,-1.44,0.38,-0.28,-0.15,4713.45,849.14,1.32,0.00,0.00,0.00
453058603,5.62,6.19,173.00,-2.75,9.62,-1.62,0.27,-0.19,-0.20,4713.45,849.14,1.31,0.00,0.00,0.00
453068605,5.62,6.19,173.00,-3.00,9.56,-1.88,0.38,-0.13,-0.19,4713.45,849.14,1.32,0.00,0.00,0.00
453079243,5.88,6.19,173.00,-3.06,9.06,-2.31,0.35,-0.02,-0.24,4713.45,849.14,1.31,0.00,0.00,0.00
453089247,6.00,6.25,172.94,-2.88,8.69,-2.56,0.23,0.04,-0.23,4713.45,849.14,1.31,0.00,0.00,0.00
453099250,6.06,6.25,172.94,-2.62,8.12,-2.81,0.33,0.10,-0.24,4713.45,849.14,1.31,0.00,0.00,0.00
453109253,6.12,6.25,172.94,-2.38,7.69,-3.00,0.24,0.01,-0.18,4713.45,849.14,1.31,0.00,0.00,0.00
453119256,6.25,6.31,172.88,-2.25,7.38,-3.06,0.04,-0.04,-0.21,4713.45,849.14,1.32,0.00,0.00,0.00
453129259,6.31,6.31,172.88,-2.12,7.50,-2.88,0.00,-0.00,-0.24,4713.45,849.14,1.32,0.00,0.00,0.00
453139439,6.38,6.31,172.81,-2.00,7.50,-2.81,-0.13,-0.12,-0.22,4713.45,849.14,1.31,0.00,0.00,0.00
453149443,6.44,6.38,172.81,-2.12,7.94,-2.50,-0.05,-0.08,-0.22,4713.45,849.14,1.33,0.00,0.00,0.00
453159844,6.56,6.38,172.81,-1.94,7.94,-2.25,-0.05,-0.02,-0.22,4713.45,849.14,1.32,0.00,0.00,0.00
453169847,6.62,6.38,172.81,-1.69,8.19,-1.56,-0.06,0.02,-0.21,4713.45,849.14,1.32,0.00,0.00,0.00
453181022,6.69,6.38,172.75,-1.44,8.94,-1.44,-0.07,0.07,-0.23,4713.45,849.14,1.33,0.00,0.00,0.00
453191025,6.81,6.44,172.75,-0.94,9.25,-0.94,-0.19,0.08,-0.20,4713.45,849.14,1.32,0.00,0.00,0.00
453202623,6.88,6.44,172.75,-0.69,9.94,-0.69,-0.26,0.08,-0.21,4713.45,849.14,1.32,0.00,0.00,0.00
453212626,6.94,6.44,172.75,-0.38,10.44,-0.62,-0.41,0.05,-0.20,4713.45,849.14,1.33,0.00,0.00,0.00
453222878,7.06,6.44,172.75,-0.12,10.94,-0.56,-0.32,-0.00,-0.19,4713.45,849.14,1.32,0.00,0.00,0.00
453232880,7.12,6.44,172.75,-0.12,11.38,-0.75,-0.27,0.08,-0.26,4713.45,849.14,1.33,0.00,0.00,0.00
453242884,7.25,6.44,172.75,0.12,11.88,-1.25,-0.05,0.16,-0.26,4713.45,849.14,1.32,0.00,0.00,0.00
453253022,7.38,6.44,172.75,0.25,12.06,-1.38,0.05,0.07,-0.23,4713.45,849.14,1.32,0.00,0.00,0.00
453263025,7.50,6.44,172.75,0.69,12.06,-1.31,0.07,0.13,-0.25,4713.45,849.14,1.31,0.00,0.00,0.00
453273027,7.62,6.44,172.75,0.88,11.81,-1.06,0.11,0.03,-0.23,4713.45,849.14,1.31,0.00,0.00,0.00
453283029,7.75,6.44,172.75,1.25,11.75,-1.25,0.02,-0.03,-0.21,4713.45,849.14,1.31,0.00,0.00,0.00
453293322,7.81,6.38,172.75,1.31,11.81,-1.19,0.10,-0.02,-0.21,4713.45,849.14,1.32,0.00,0.00,0.00
453304454,7.94,6.38,172.75,1.38,12.19,-1.56,0.17,-0.02,-0.26,4713.45,849.14,1.32,0.00,0.00,0.00
453314458,8.06,6.38,172.75,1.50,11.69,-1.88,0.44,-0.05,-0.25,4713.45,849.14,1.31,0.00,0.00,0.00
453324462,8.19,6.38,172.69,1.69,11.31,-2.31,0.54,-0.02,-0.25,4713.45,849.14,1.32,0.00,0.00,0.00
453336062,8.31,6.31,172.69,1.81,10.50,-2.38,0.58,-0.20,-0.30,4713.45,849.14,1.32,0.00,0.00,0.00
453348761,8.38,6.31,172.69,1.62,9.19,-2.44,0.55,-0.14,-0.30,4713.45,849.14,1.32,0.00,0.00,0.00
453358765,8.50,6.31,172.69,1.62,9.19,-2.44,0.26,-0.18,-0.24,4713.45,849.14,1.32,0.00,0.00,0.00
453369993,8.56,6.31,172.62,1.56,8.31,-1.50,0.15,-0.22,-0.17,4713.45,849.14,1.32,0.00,0.00,0.00
453379997,8.62,6.25,172.62,1.50,8.25,-1.31,0.06,-0.17,-0.12,4713.45,849.14,1.33,0.00,0.00,0.00
453391055,8.81,6.25,172.62,1.25,8.25,-1.19,-0.07,-0.12,-0.15,4713.45,849.14,1.32,0.00,0.00,0.00
453401060,8.88,6.25,172.62,1.12,8.69,-1.12,-0.12,-0.11,-0.14,4713.45,849.14,1.32,0.00,0.00,0.00
453411065,9.00,6.19,172.62,1.06,9.19,-1.38,-0.09,-0.05,-0.14,4713.45,849.14,1.32,0.00,0.00,0.00
453421068,9.06,6.19,172.62,1.00,9.56,-1.44,-0.11,-0.05,-0.14,4713.45,849.14,1.32,0.00,0.00,0.00
453431072,9.19,6.19,172.62,1.19,9.75,-1.56,-0.25,-0.07,-0.17,4713.45,849.14,1.32,0.00,0.00,0.00
453441075,9.25,6.19,172.56,1.19,10.06,-1.94,-0.21,-0.04,-0.14,4713.45,849.14,1.31,0.00,0.00,0.00
453451078,9.38,6.19,172.56,1.12,10.69,-2.38,-0.44,-0.07,-0.14,4713.45,849.14,1.32,0.00,0.00,0.00
453461082,9.38,6.19,172.56,1.00,11.19,-2.69,-0.29,-0.05,-0.20,4713.45,849.14,1.33,0.00,0.00,0.00
453471487,9.56,6.12,172.56,1.19,11.94,-2.88,-0.41,0.01,-0.23,4713.45,849.14,1.32,0.00,0.00,0.00
453481489,9.69,6.12,172.50,1.25,12.50,-3.00,-0.11,0.06,-0.26,4713.45,849.14,1.33,0.00,0.00,0.00
453492475,9.81,6.12,172.50,1.44,12.62,-2.69,-0.01,0.06,-0.30,4713.45,849.14,1.32,0.00,0.00,0.00
453502480,9.88,6.06,172.50,1.62,12.81,-2.19,-0.18,0.01,-0.35,4713.45,849.14,1.32,0.00,0.00,0.00
453512810,10.06,6.06,172.50,1.69,12.94,-2.06,-0.05,-0.04,-0.34,4713.45,849.14,1.32,0.00,0.00,0.00
453522813,10.19,6.06,172.44,1.69,13.00,-2.00,-0.09,-0.11,-0.31,4713.45,849.14,1.33,0.00,0.00,0.00
453532816,10.31,6.06,172.44,1.88,13.06,-2.00,-0.17,-0.08,-0.29,4713.45,849.14,1.32,0.00,0.00,0.00
453542820,10.44,6.00,172.44,1.81,13.06,-1.88,0.08,-0.02,-0.28,4713.45,849.14,1.33,0.00,0.00,0.00
453552823,10.56,6.00,172.44,1.94,12.94,-1.62,0.10,-0.03,-0.28,4713.45,849.14,1.33,0.00,0.00,0.00
453562826,10.69,6.00,172.44,2.25,12.81,-0.88,0.12,-0.03,-0.28,4713.45,849.14,1.33,0.00,0.00,0.00
453572829,10.81,5.94,172.44,2.50,12.94,-0.44,0.11,-0.00,-0.29,4713.45,849.14,1.33,0.00,0.00,0.00
453582832,10.94,5.94,172.44,2.69,12.69,0.06,0.31,-0.07,-0.33,4713.45,849.14,1.33,0.00,0.00,-0.00
453592836,11.06,5.94,172.44,2.94,12.44,0.44,0.27,-0.10,-0.32,4713.45,849.14,1.33,0.00,0.00,-0.00
453603175,11.19,5.88,172.44,3.00,12.44,0.56,0.30,-0.10,-0.34,4713.45,849.14,1.32,0.00,0.00,-0.00
453613179,11.25,5.88,172.50,3.31,12.50,0.69,0.06,-0.21,-0.25,4713.45,849.14,1.32,0.00,0.00,-0.00
453623184,11.38,5.81,172.50,3.00,12.19,0.56,0.08,-0.10,-0.27,4713.45,849.14,1.31,0.00,0.00,-0.00
453633186,11.50,5.81,172.50,2.88,12.12,0.56,0.02,-0.02,-0.32,4713.45,849.14,1.31,0.00,0.00,-0.00
453643189,11.62,5.75,172.50,2.94,12.31,0.38,0.00,-0.12,-0.31,4713.45,849.14,1.30,0.00,0.00,-0.00
453653193,11.75,5.75,172.50,2.94,12.44,-0.19,0.47,-0.16,-0.27,4713.45,849.14,1.29,0.00,0.00,0.00
453663197,11.88,5.69,172.50,3.00,12.25,-0.81,0.52,-0.28,-0.26,4713.45,849.14,1.30,0.00,0.00,0.00
453673200,12.00,5.69,172.50,2.62,11.69,-0.56,0.45,-0.39,-0.22,4713.45,849.14,1.30,0.00,0.00,0.00
453683205,12.12,5.69,172.50,2.38,11.50,-0.62,0.63,-0.36,-0.21,4713.45,849.14,1.29,0.00,0.00,0.00
453693208,12.25,5.62,172.56,2.12,10.88,-0.25,0.39,-0.40,-0.16,4713.45,849.14,1.29,0.00,0.00,0.00
453703213,12.31,5.62,172.56,1.75,10.25,-0.31,0.36,-0.31,-0.17,4713.45,849.14,1.29,0.00,0.00,0.00
453713217,12.44,5.62,172.56,1.38,9.81,-0.25,0.39,-0.36,-0.14,4713.45,849.14,1.29,0.00,0.00,0.00
453723219,12.56,5.56,172.56,0.88,9.19,-0.44,0.51,-0.45,-0.16,4713.45,849.14,1.29,0.00,0.00,0.00
453734049,12.69,5.50,172.56,0.44,8.62,-0.25,0.47,-0.40,-0.16,4713.45,849.14,1.29,0.00,0.00,0.00
453744052,12.88,5.44,172.56,0.06,8.06,0.06,0.52,-0.47,-0.11,4713.45,849.14,1.30,0.00,0.00,-0.00
453755698,13.00,5.38,172.56,-0.38,7.38,0.81,0.39,-0.47,-0.05,4713.45,849.14,1.29,0.00,0.00,-0.00
453765702,13.06,5.38,172.56,-1.12,7.12,1.44,0.18,-0.37,-0.09,4713.45,849.14,1.31,0.00,0.00,-0.00
453777148,13.19,5.38,172.56,-1.50,6.44,1.62,-0.09,-0.39,-0.08,4713.45,849.14,1.30,0.00,0.00,-0.00
453787153,13.25,5.38,172.56,-1.69,6.44,1.69,-0.22,-0.27,-0.11,4713.45,849.14,1.31,0.00,0.00,-0.00
453800658,13.31,5.38,172.56,-2.31,7.00,1.31,-0.35,-0.11,-0.11,4713.45,849.14,1.31,0.00,0.00,-0.00
453810661,13.38,5.44,172.62,-2.31,7.00,1.31,-0.35,-0.11,-0.11,4713.45,849.14,1.32,0.00,0.00,-0.00
453821484,13.44,5.44,172.62,-2.31,7.94,0.44,-0.25,0.01,-0.19,4713.45,849.14,1.33,0.00,0.00,-0.00
453831488,13.50,5.50,172.62,-2.19,8.62,0.25,-0.16,0.04,-0.19,4713.45,849.14,1.33,0.00,0.00,-0.00
453842540,13.69,5.50,172.62,-2.00,9.06,0.06,-0.01,-0.01,-0.15,4713.45,849.14,1.33,0.00,0.00,-0.00
453852544,13.75,5.56,172.62,-1.94,9.31,0.44,-0.19,0.01,-0.19,4713.45,849.14,1.34,0.00,0.00,-0.00
453862803,13.88,5.56,172.62,-1.75,9.69,0.75,-0.24,0.12,-0.23,4713.45,849.14,1.33,0.00,0.00,-0.00
453872807,13.94,5.56,172.62,-1.56,9.94,0.69,-0.32,0.06,-0.22,4713.45,849.14,1.34,0.00,0.00,-0.00
453882810,14.00,5.62,172.62,-1.38,10.44,0.62,-0.30,0.14,-0.29,4713.45,849.14,1.34,0.00,0.00,-0.00
453892812,14.12,5.62,172.62,-0.88,10.62,0.12,0.11,-0.03,-0.23,4713.45,849.14,1.35,0.00,0.00,-0.00
453902817,14.25,5.62,172.69,-0.62,10.88,-0.31,0.00,-0.02,-0.28,4713.45,849.14,1.35,0.00,0.00,0.00
453912820,14.31,5.62,172.69,-0.62,10.94,-0.44,0.34,-0.21,-0.19,4713.45,849.14,1.35,0.00,0.00,0.00
453925312,14.44,5.62,172.69,-0.50,10.75,-0.06,-0.18,-0.34,-0.17,4713.45,849.14,1.34,0.00,0.00,0.00
453935327,14.56,5.69,172.69,-0.75,10.69,-0.31,-0.03,-0.32,-0.23,4713.45,849.14,1.32,0.00,0.00,0.00
453945329,14.62,5.69,172.69,-0.88,10.25,0.12,0.00,-0.24,-0.24,4713.45,849.14,1.31,0.00,0.00,-0.00
453955334,14.75,5.69,172.69,-1.00,10.12,0.25,0.02,-0.11,-0.32,4713.45,849.14,1.29,0.00,0.00,-0.00
453965338,14.81,5.69,172.69,-0.81,9.69,-0.06,0.13,-0.00,-0.40,4713.45,849.14,1.28,0.00,0.00,0.00
453975341,14.94,5.69,172.69,-0.75,9.44,0.06,0.18,-0.00,-0.41,4713.45,849.14,1.27,0.00,0.00,-0.00
453985344,15.00,5.69,172.69,-0.25,9.44,0.44,0.17,-0.00,-0.45,4713.45,849.14,1.25,0.00,0.00,-0.00
453995347,15.12,5.69,172.69,-0.06,9.25,0.56,0.18,0.07,-0.44,4713.45,849.14,1.22,0.00,0.00,-0.00
454006159,15.25,5.75,172.69,0.38,9.00,0.75,0.10,0.04,-0.45,4713.45,849.14,1.22,0.00,0.00,-0.00
454016163,15.31,5.75,172.75,0.56,8.75,1.06,-0.20,0.11,-0.48,4713.45,849.14,1.20,0.00,0.00,-0.00
454026186,15.38,5.75,172.75,0.62,8.81,1.25,-0.22,-0.11,-0.39,4713.45,849.14,1.19,0.00,0.00,-0.00
454036190,15.50,5.75,172.75,0.88,9.00,1.19,-0.31,-0.22,-0.37,4713.45,849.14,1.18,0.00,0.00,-0.00
454046398,15.56,5.75,172.75,0.75,9.44,0.62,-0.22,-0.14,-0.40,4713.45,849.14,1.17,0.00,0.00,-0.00
454056523,15.69,5.75,172.75,0.56,9.75,0.12,-0.06,-0.31,-0.35,4713.45,849.14,1.18,0.00,0.00,-0.00
454067535,15.75,5.75,172.75,0.56,9.69,0.25,0.06,-0.20,-0.36,4713.45,849.14,1.17,0.00,0.00,-0.00
454077538,15.88,5.75,172.75,0.38,9.62,0.31,0.12,-0.07,-0.37,4713.45,849.14,1.16,0.00,0.00,-0.00
454091906,15.94,5.75,172.81,0.50,9.12,1.12,-0.09,-0.03,-0.39,4713.45,849.14,1.17,0.00,0.00,-0.00
454101914,16.00,5.75,172.81,0.56,8.94,0.94,-0.08,-0.00,-0.38,4713.45,849.14,1.19,0.00,0.00,-0.00
454113566,16.19,5.75,172.81,0.62,8.88,0.69,-0.07,-0.15,-0.33,4713.45,849.14,1.18,0.00,0.00,-0.00
454123571,16.31,5.75,172.81,0.75,9.00,0.19,-0.10,-0.15,-0.33,4713.45,849.14,1.16,0.00,0.00,-0.00
454134229,16.38,5.75,172.81,0.75,9.19,-0.38,-0.01,-0.39,-0.23,4713.45,849.14,1.14,0.00,0.00,0.00
454144234,16.44,5.69,172.81,0.56,9.12,-0.81,-0.04,-0.29,-0.23,4713.45,849.14,1.09,0.00,0.00,0.00
454154239,16.56,5.69,172.81,0.31,9.19,-0.88,-0.06,-0.18,-0.24,4713.45,849.14,1.00,0.00,0.00,0.00
454164243,16.62,5.69,172.81,0.06,9.19,-0.50,-0.17,-0.17,-0.25,4713.45,849.14,0.92,0.00,0.00,0.00
454174541,16.75,5.69,172.81,0.06,9.25,-0.25,-0.17,-0.04,-0.31,4713.45,849.14,0.90,0.00,0.00,0.00
454184545,16.81,5.69,172.81,0.06,9.56,-0.19,0.00,-0.08,-0.32,4713.45,849.14,0.87,0.00,0.00,0.00
454195181,16.94,5.69,172.81,0.19,9.81,0.00,-0.06,-0.09,-0.30,4713.45,849.14,0.86,0.00,0.00,0.00
454205185,17.00,5.69,172.88,0.31,10.12,0.25,-0.10,-0.14,-0.29,4713.45,849.14,0.83,0.00,0.00,-0.00
454216474,17.12,5.69,172.88,0.44,10.38,0.12,-0.13,-0.18,-0.32,4713.45,849.14,0.83,0.00,0.00,-0.00
454226476,17.19,5.69,172.88,0.31,10.50,0.06,-0.18,-0.17,-0.26,4713.45,849.14,0.82,0.00,0.00,-0.00
454237105,17.31,5.69,172.88,0.44,10.88,-0.12,-0.48,-0.19,-0.27,4713.45,849.14,0.81,0.00,0.00,0.00
454247109,17.38,5.69,172.88,0.31,11.19,-0.44,-0.17,-0.32,-0.19,4713.45,849.14,0.81,0.00,0.00,0.00
454257113,17.50,5.69,172.88,0.38,11.56,-0.69,-0.23,-0.15,-0.23,4713.45,849.14,0.79,0.00,0.00,0.00
454267117,17.62,5.69,172.88,0.12,11.69,-0.75,0.10,-0.22,-0.23,4713.45,849.14,0.78,0.00,0.00,0.00
454277121,17.75,5.69,172.88,-0.06,11.88,-0.50,-0.04,-0.20,-0.29,4713.45,849.14,0.78,0.00,0.00,0.00
454287757,17.88,5.69,172.88,-0.06,11.50,-0.25,0.31,-0.10,-0.32,4713.45,849.14,0.77,0.00,0.00,0.00
454298278,17.94,5.69,172.88,-0.06,11.38,0.38,0.07,-0.13,-0.26,4713.45,849.14,0.75,0.00,0.00,-0.00
454312397,18.06,5.69,172.88,-0.12,11.25,1.00,0.08,-0.09,-0.27,4713.45,849.14,0.75,0.00,0.00,-0.00
454322399,18.19,5.69,172.94,0.06,11.00,1.38,0.18,-0.17,-0.23,4713.45,849.14,0.72,0.00,0.00,-0.00
454333587,18.25,5.69,172.94,-0.06,11.12,1.06,0.08,-0.21,-0.29,4713.45,849.14,0.72,0.00,0.00,-0.00
454343590,18.38,5.69,172.94,-0.12,10.94,0.69,0.02,-0.17,-0.26,4713.45,849.14,0.71,0.00,0.00,-0.00
454354490,18.62,5.69,172.94,0.12,10.75,0.25,0.14,-0.11,-0.34,4713.45,849.14,0.70,0.00,0.00,-0.00
454364493,18.62,5.69,172.94,0.12,10.44,-0.19,0.24,-0.21,-0.30,4713.45,849.14,0.69,0.00,0.00,0.00
454374497,18.69,5.69,172.94,0.00,10.50,-0.12,0.24,-0.21,-0.29,4713.45,849.14,0.69,0.00,0.00,0.00
454384500,18.81,5.75,172.94,0.06,9.94,0.06,0.09,-0.12,-0.26,4713.45,849.14,0.68,0.00,0.00,-0.00
454394503,18.88,5.75,173.00,0.12,9.88,0.44,0.04,-0.13,-0.27,4713.45,849.14,0.67,0.00,0.00,-0.00
454404506,19.00,5.75,173.00,0.25,9.75,0.81,0.06,-0.07,-0.27,4713.45,849.14,0.66,0.00,0.00,-0.00
454414510,19.06,5.75,173.00,0.25,9.81,0.88,0.09,-0.07,-0.27,4713.45,849.14,0.64,0.00,0.00,-0.00
454424514,19.19,5.75,173.00,0.12,10.06,1.12,0.07,-0.08,-0.29,4713.45,849.14,0.64,0.00,0.00,-0.00
454434517,19.31,5.75,173.00,0.44,9.88,0.94,0.52,-0.24,-0.28,4713.45,849.14,0.64,0.00,0.00,-0.00
454444521,19.44,5.75,173.00,0.25,9.56,0.94,0.38,-0.10,-0.30,4713.45,849.14,0.65,0.00,0.00,-0.00
454454524,19.50,5.75,173.06,0.06,9.44,0.56,0.10,-0.16,-0.31,4713.45,849.14,0.64,0.00,0.00,-0.00
454464528,19.56,5.75,173.06,0.06,9.44,0.56,0.13,-0.08,-0.27,4713.45,849.14,0.64,0.00,0.00,-0.00
454474543,19.69,5.75,173.06,0.06,8.88,0.12,0.12,-0.00,-0.27,4713.45,849.14,0.64,0.00,0.00,-0.00
454484547,19.75,5.75,173.06,0.19,8.06,-0.25,-0.01,0.09,-0.31,4713.45,849.14,0.64,0.00,0.00,0.00
454494550,19.88,5.75,173.06,0.62,7.94,-0.19,0.02,0.06,-0.35,4713.45,849.14,0.62,0.00,0.00,0.00
454504553,19.94,5.75,173.06,0.75,7.94,-0.06,-0.05,0.02,-0.29,4713.45,849.14,0.62,0.00,0.00,0.00
454514555,20.00,5.75,173.06,0.94,8.00,-0.25,-0.15,-0.01,-0.23,4713.45,849.14,0.62,0.00,0.00,0.00
454524715,20.06,5.75,173.06,1.31,7.94,-0.56,-0.02,-0.09,-0.21,4713.45,849.14,0.62,0.00,0.00,0.00
454534718,20.19,5.75,173.06,1.44,7.94,-1.06,-0.17,-0.06,-0.24,4713.45,849.14,0.62,0.00,0.00,0.00
454545928,20.31,5.69,173.06,1.62,7.75,-1.31,-0.36,0.03,-0.27,4713.45,849.14,0.62,0.00,0.00,0.00
454555932,20.38,5.69,173.06,1.75,7.88,-1.38,-0.43,0.11,-0.26,4713.45,849.14,0.61,0.00,0.00,0.00
454565934,20.44,5.69,173.06,2.12,8.12,-1.62,-0.32,-0.07,-0.23,4713.45,849.14,0.61,0.00,0.00,0.00
454575937,20.56,5.62,173.06,2.50,8.62,-1.81,-0.29,-0.09,-0.25,4713.45,849.14,0.60,0.00,0.00,0.00
454585940,20.62,5.62,173.06,2.69,9.19,-1.94,-0.22,-0.10,-0.24,4713.45,849.14,0.61,0.00,0.00,0.00
454595944,20.69,5.56,173.06,2.81,9.75,-1.50,-0.13,-0.26,-0.22,4713.45,849.14,0.59,0.00,0.00,0.00
454606497,20.81,5.50,173.00,2.88,10.06,-1.56,-0.19,-0.25,-0.24,4713.45,849.14,0.61,0.00,0.00,0.00
454616501,20.88,5.50,173.00,2.38,10.75,-1.19,-0.15,-0.18,-0.27,4713.45,849.14,0.60,0.00,0.00,0.00
454626505,21.00,5.44,173.00,2.38,10.75,-1.19,-0.10,-0.16,-0.32,4713.45,849.14,0.60,0.00,0.00,0.00
454636509,21.12,5.44,173.00,2.44,11.06,-1.06,-0.21,-0.08,-0.34,4713.45,849.14,0.60,0.00,0.00,0.00
454646512,21.25,5.44,173.00,2.75,11.81,-0.88,-0.18,-0.17,-0.38,4713.45,849.14,0.59,0.00,0.00,0.00
454656764,21.31,5.38,173.00,2.69,11.81,-1.06,-0.03,-0.21,-0.37,4713.45,849.14,0.60,0.00,0.00,0.00
454666768,21.44,5.38,173.00,2.62,11.88,-1.19,-0.10,-0.21,-0.38,4713.45,849.14,0.60,0.00,0.00,0.00
454677023,21.56,5.31,173.00,2.56,12.06,-1.31,-0.07,-0.26,-0.35,4713.45,849.14,0.59,0.00,0.00,0.00
454687026,21.69,5.31,173.00,2.44,11.88,-0.88,0.18,-0.27,-0.33,4713.45,849.14,0.58,0.00,0.00,0.00
454697029,21.81,5.25,173.00,2.25,11.81,-0.38,0.00,-0.20,-0.32,4713.45,849.14,0.58,0.00,0.00,0.00
454707032,21.94,5.25,173.00,2.25,12.06,0.06,-0.12,-0.18,-0.34,4713.45,849.14,0.59,0.00,0.00,-0.00
454717034,22.06,5.25,173.06,2.19,12.25,0.31,-0.16,-0.18,-0.32,4713.45,849.14,0.58,0.00,0.00,-0.00
454727039,22.19,5.19,173.06,2.31,12.44,0.56,-0.27,-0.09,-0.39,4713.45,849.14,0.56,0.00,0.00,-0.00
454737192,22.25,5.19,173.06,2.38,12.69,0.50,-0.14,-0.27,-0.39,4713.45,849.14,0.57,0.00,0.00,-0.00
454747196,22.44,5.19,173.06,2.25,12.81,0.50,0.20,-0.31,-0.34,4713.45,849.14,0.57,0.00,0.00,-0.00
454757441,22.56,5.12,173.06,1.94,12.62,0.62,0.19,-0.27,-0.36,4713.45,849.14,0.58,0.00,0.00,-0.00
454767445,22.62,5.12,173.12,1.50,12.69,1.25,0.45,-0.54,-0.23,4713.45,849.14,0.56,0.00,0.00,-0.00
454777728,22.75,5.12,173.12,1.00,12.25,1.81,-0.17,-0.48,-0.17,4713.45,849.14,0.57,0.00,0.00,-0.00
454787733,22.88,5.19,173.12,0.31,12.06,1.75,0.01,-0.34,-0.29,4713.45,849.14,0.55,0.00,0.00,-0.00
454797735,23.00,5.19,173.19,0.06,12.19,1.94,-0.04,-0.36,-0.26,4713.45,849.14,0.52,0.00,0.00,-0.00
454807738,23.12,5.19,173.19,-0.50,12.12,1.62,0.11,-0.20,-0.29,4713.45,849.14,0.52,0.00,0.00,-0.00
454817742,23.25,5.19,173.19,-0.81,11.94,1.31,-0.05,-0.07,-0.33,4713.45,849.14,0.52,0.00,0.00,-0.00
454827746,23.38,5.19,173.25,-0.69,11.94,1.69,-0.09,-0.18,-0.32,4713.45,849.14,0.49,0.00,0.00,-0.00
454837751,23.50,5.19,173.25,-0.88,12.06,1.50,0.02,-0.11,-0.34,4713.45,849.14,0.53,0.00,0.00,-0.00
454847754,23.62,5.19,173.25,-0.75,11.56,1.06,-0.11,-0.09,-0.31,4713.45,849.14,0.51,0.00,0.00,-0.00
454857758,23.69,5.25,173.25,-0.75,11.50,0.75,-0.18,-0.11,-0.32,4713.45,849.14,0.51,0.00,0.00,-0.00
454869073,23.81,5.25,173.25,-0.75,11.44,0.12,-0.05,-0.09,-0.31,4713.45,849.14,0.52,0.00,0.00,-0.00
454879076,23.94,5.25,173.25,-0.81,11.50,-0.25,-0.01,-0.19,-0.29,4713.45,849.14,0.51,0.00,0.00,0.00
454889513,24.06,5.25,173.25,-0.88,11.44,-0.38,0.10,-0.02,-0.36,4713.45,849.14,0.51,0.00,0.00,0.00
454899517,24.19,5.25,173.25,-0.69,11.75,-0.56,0.25,0.03,-0.37,4713.45,849.14,0.52,0.00,0.00,0.00
454913270,24.25,5.25,173.25,-0.44,11.38,-0.31,0.21,-0.01,-0.34,4713.45,849.14,0.45,0.00,0.00,0.00
454923273,24.38,5.25,173.31,-0.25,11.25,-0.25,0.04,0.10,-0.36,4713.45,849.14,0.51,0.00,0.00,0.00
454933276,24.50,5.25,173.31,0.31,11.12,-0.12,-0.17,0.07,-0.43,4713.45,849.14,0.50,0.00,0.00,0.00
454944164,24.56,5.31,173.31,0.69,10.69,-0.31,-0.23,0.07,-0.41,4713.45,849.14,0.48,0.00,0.00,0.00
454954647,24.69,5.25,173.31,1.00,10.75,-0.81,-0.09,-0.08,-0.39,4713.45,849.14,0.48,0.00,0.00,0.00
454965411,24.81,5.25,173.31,1.38,10.94,-1.56,-0.09,-0.08,-0.39,4713.45,849.14,0.49,0.00,0.00,0.00
454975416,24.94,5.25,173.25,1.50,10.50,-2.25,-0.02,-0.03,-0.33,4713.45,849.14,0.48,0.00,0.00,0.00
454985418,25.00,5.19,173.25,1.62,10.56,-2.31,0.06,-0.11,-0.32,4713.45,849.14,0.51,0.00,0.00,0.00
454996483,25.12,5.19,173.25,1.75,10.44,-1.94,0.12,-0.20,-0.30,4713.45,849.14,0.48,0.00,0.00,0.00
455006487,25.25,5.19,173.25,1.69,10.56,-0.62,0.07,-0.21,-0.33,4713.45,849.14,0.47,0.00,0.00,0.00
455017237,25.38,5.12,173.25,1.69,10.50,0.06,0.10,-0.18,-0.31,4713.45,849.14,0.48,0.00,0.00,-0.00
455027240,25.44,5.12,173.25,1.75,10.62,0.69,0.05,-0.16,-0.31,4713.45,849.14,0.44,0.00,0.00,-0.00
455037244,25.56,5.12,173.25,1.81,10.81,0.88,-0.14,-0.12,-0.36,4713.45,849.14,0.48,0.00,0.00,-0.00
455047249,25.69,5.06,173.25,2.12,10.88,0.56,-0.19,-0.12,-0.33,4713.45,849.14,0.51,0.00,0.00,-0.00
455057252,25.81,5.06,173.25,1.94,11.06,-0.12,-0.15,-0.16,-0.24,4713.45,849.14,0.45,0.00,0.00,0.00
455069876,26.00,5.06,173.25,2.06,11.12,-0.69,-0.01,-0.17,-0.19,4713.45,849.14,0.50,0.00,0.00,0.00
455079879,26.12,5.00,173.25,2.00,11.12,-0.69,0.16,-0.20,-0.24,4713.45,849.14,0.44,0.00,0.00,0.00
455092112,26.25,5.00,173.31,1.81,10.94,-0.25,0.13,-0.21,-0.24,4713.45,849.14,0.47,0.00,0.00,0.00
455104011,26.31,5.00,173.31,1.62,10.69,0.00,-0.08,-0.10,-0.25,4713.45,849.14,0.48,0.00,0.00,0.00
455116928,26.44,4.94,173.31,1.75,10.69,0.44,-0.29,-0.14,-0.25,4713.45,849.14,0.47,0.00,0.00,-0.00
455126933,26.50,4.94,173.31,1.62,10.44,0.38,-0.28,-0.07,-0.31,4713.45,849.14,0.45,0.00,0.00,-0.00
455138585,26.75,4.94,173.31,1.62,11.06,0.00,-0.32,-0.03,-0.39,4713.45,849.14,0.47,0.00,0.00,0.00
455148588,26.88,4.94,173.31,1.81,11.75,-0.56,-0.29,-0.15,-0.34,4713.45,849.14,0.45,0.00,0.00,0.00
455159428,26.94,4.88,173.31,1.50,12.00,-1.19,-0.01,-0.25,-0.32,4713.45,849.14,0.48,0.00,0.00,0.00
455169431,27.06,4.88,173.31,1.31,12.06,-1.44,0.05,-0.21,-0.32,4713.45,849.14,0.47,0.00,0.00,0.00
455180768,27.19,4.88,173.31,1.31,12.00,-1.38,0.12,-0.26,-0.33,4713.45,849.14,0.48,0.00,0.00,0.00
455190772,27.31,4.88,173.31,1.19,11.62,-1.56,0.15,-0.30,-0.36,4713.45,849.14,0.48,0.00,0.00,0.00
455200775,27.44,4.81,173.31,1.00,11.12,-1.38,0.18,-0.18,-0.42,4713.45,849.14,0.49,0.00,0.00,0.00
455210780,27.56,4.81,173.31,1.00,10.94,-1.06,0.09,-0.30,-0.40,4713.45,849.14,0.49,0.00,0.00,0.00
455220899,27.62,4.81,173.31,0.81,10.44,-0.94,0.26,-0.33,-0.40,4713.45,849.14,0.45,0.00,0.00,0.00
455230901,27.75,4.81,173.31,0.44,10.12,-0.38,0.14,-0.27,-0.41,4713.45,849.14,0.48,0.00,0.00,0.00
455240906,27.88,4.75,173.31,0.38,9.69,0.06,0.14,-0.31,-0.43,4713.45,849.14,0.47,0.00,0.00,-0.00
455250909,28.00,4.75,173.31,0.19,9.31,0.25,0.08,-0.20,-0.43,4713.45,849.14,0.47,0.00,0.00,-0.00
455260912,28.12,4.75,173.31,0.06,9.12,0.38,-0.05,-0.14,-0.42,4713.45,849.14,0.47,0.00,0.00,-0.00
455270915,28.19,4.75,173.31,0.06,8.69,0.50,-0.07,-0.14,-0.38,4713.45,849.14,0.44,0.00,0.00,-0.00
455280919,28.31,4.75,173.31,0.25,8.94,0.56,-0.20,-0.21,-0.31,4713.45,849.14,0.44,0.00,0.00,-0.00
455290922,28.38,4.75,173.31,0.31,8.94,0.25,-0.16,-0.20,-0.35,4713.45,849.14,0.48,0.00,0.00,-0.00
455300926,28.44,4.75,173.31,0.38,9.00,0.25,-0.02,-0.24,-0.33,4713.45,849.14,0.48,0.00,0.00,-0.00
455310928,28.56,4.75,173.31,0.12,8.75,0.38,0.06,-0.32,-0.33,4713.45,849.14,0.47,0.00,0.00,-0.00
455320931,28.62,4.69,173.31,-0.19,8.88,0.62,0.00,-0.27,-0.35,4713.45,849.14,0.48,0.00,0.00,-0.00
455330933,28.75,4.69,173.31,-0.56,8.88,1.00,-0.01,-0.29,-0.36,4713.45,849.14,0.45,0.00,0.00,-0.00
455340936,28.81,4.69,173.31,-0.81,8.75,1.38,-0.11,-0.35,-0.32,4713.45,849.14,0.48,0.00,0.00,-0.00
455350939,28.94,4.69,173.31,-1.12,8.94,1.50,-0.29,-0.32,-0.32,4713.45,849.14,0.47,0.00,0.00,-0.00
455360943,29.00,4.69,173.31,-1.62,9.31,1.31,-0.43,-0.37,-0.28,4713.45,849.14,0.49,0.00,0.00,-0.00
455370946,29.12,4.75,173.38,-2.00,9.94,0.81,-0.45,-0.37,-0.27,4713.45,849.14,0.49,0.00,0.00,-0.00
455380950,29.19,4.75,173.31,-2.31,10.31,0.38,-0.53,-0.33,-0.24,4713.45,849.14,0.48,0.00,0.00,-0.00
455390954,29.31,4.81,173.31,-2.69,10.56,0.19,-0.45,-0.28,-0.27,4713.45,849.14,0.47,0.00,0.00,-0.00
455401129,29.44,4.81,173.31,-2.94,11.12,-0.12,-0.29,-0.17,-0.27,4713.45,849.14,0.48,0.00,0.00,0.00
455411133,29.50,4.88,173.31,-3.06,11.44,0.19,-0.31,-0.10,-0.35,4713.45,849.14,0.48,0.00,0.00,-0.00
455421136,29.62,4.88,173.31,-3.25,11.88,0.12,-0.36,-0.06,-0.35,4713.45,849.14,0.45,0.00,0.00,-0.00
455431139,29.75,4.94,173.31,-3.19,12.12,0.19,-0.21,-0.00,-0.36,4713.45,849.14,0.47,0.00,0.00,-0.00
455441143,29.88,4.94,173.31,-3.00,12.50,0.50,-0.53,-0.05,-0.37,4713.45,849.14,0.44,0.00,0.00,-0.00
455451147,30.00,5.00,173.31,-2.75,12.88,0.31,-0.28,-0.07,-0.35,4713.45,849.14,0.44,0.00,0.00,-0.00
455461151,30.12,5.00,173.31,-2.81,12.81,0.12,0.04,-0.03,-0.39,4713.45,849.14,0.42,0.00,0.00,-0.00
455471154,30.25,5.06,173.31,-2.69,13.06,0.31,-0.48,0.08,-0.37,4713.45,849.14,0.40,0.00,0.00,-0.00
455481158,30.38,5.06,173.31,-2.06,13.31,0.12,-0.17,0.13,-0.43,4713.45,849.14,0.43,0.00,0.00,-0.00
455491161,30.50,5.12,173.31,-1.75,13.56,-0.25,-0.09,0.10,-0.50,4713.45,849.14,0.43,0.00,0.00,0.00
455501165,30.62,5.12,173.31,-1.31,13.69,-0.75,0.04,0.03,-0.53,4713.45,849.14,0.42,0.00,0.00,0.00
455511169,30.75,5.12,173.31,-0.94,13.31,-1.38,0.10,0.10,-0.52,4713.45,849.14,0.43,0.00,0.00,0.00
455521172,30.88,5.12,173.31,-0.50,13.12,-1.94,0.24,-0.06,-0.42,4713.45,849.14,0.43,0.00,0.00,0.00
455531176,31.00,5.12,173.25,-0.31,12.56,-2.69,0.34,-0.07,-0.41,4713.45,849.14,0.44,0.00,0.00,0.00
455541179,31.12,5.12,173.25,-0.12,11.94,-2.50,0.35,-0.11,-0.41,4713.45,849.14,0.45,0.00,0.00,0.00
455551182,31.25,5.12,173.25,0.00,11.56,-1.88,0.33,-0.16,-0.37,4713.45,849.14,0.44,0.00,0.00,0.00
455561185,31.38,5.12,173.25,-0.06,11.12,-1.31,0.32,-0.19,-0.34,4713.45,849.14,0.45,0.00,0.00,0.00
455571189,31.44,5.12,173.25,0.00,10.75,-0.38,0.22,-0.20,-0.32,4713.45,849.14,0.45,0.00,0.00,0.00
455581191,31.56,5.12,173.25,-0.25,10.38,0.31,0.19,-0.22,-0.32,4713.45,849.14,0.44,0.00,0.00,-0.00
455591193,31.69,5.12,173.25,-0.12,10.06,0.69,0.23,-0.14,-0.35,4713.45,849.14,0.45,0.00,0.00,-0.00
455601197,31.81,5.12,173.25,-0.12,9.94,0.81,0.27,-0.23,-0.33,4713.45,849.14,0.47,0.00,0.00,-0.00
455611912,31.94,5.12,173.25,-0.19,9.31,0.50,0.25,-0.25,-0.29,4713.45,849.14,0.45,0.00,0.00,-0.00
455621915,32.06,5.06,173.25,-0.38,8.62,0.19,0.17,-0.25,-0.29,4713.45,849.14,0.43,0.00,0.00,-0.00
455632321,32.12,5.06,173.25,-0.56,8.19,-0.31,0.13,-0.12,-0.32,4713.45,849.14,0.45,0.00,0.00,0.00
455642325,32.25,5.06,173.25,-0.38,7.62,-0.31,-0.03,0.04,-0.33,4713.45,849.14,0.45,0.00,0.00,0.00
455652329,32.31,5.06,173.25,-0.12,7.50,-0.44,-0.15,0.02,-0.28,4713.45,849.14,0.43,0.00,0.00,0.00
455662331,32.38,5.06,173.25,0.06,7.56,-0.44,-0.30,-0.02,-0.25,4713.45,849.14,0.44,0.00,0.00,0.00
455672335,32.44,5.06,173.25,0.19,8.00,-0.38,-0.31,-0.10,-0.17,4713.45,849.14,0.45,0.00,0.00,0.00
455682339,32.56,5.12,173.25,-0.06,8.38,-0.31,-0.37,-0.16,-0.23,4713.45,849.14,0.40,0.00,0.00,0.00
455692343,32.62,5.12,173.25,-0.06,8.75,-0.50,-0.39,-0.13,-0.26,4704.20,849.13,0.40,0.00,0.00,0.00
455702347,32.69,5.12,173.25,-0.06,9.06,-0.62,-0.30,-0.13,-0.25,4704.20,849.13,0.43,0.00,0.00,0.00
455712351,32.81,5.12,173.25,-0.06,9.31,-0.81,-0.30,-0.19,-0.26,4704.20,849.13,0.42,0.00,0.00,0.00
455722354,32.88,5.12,173.25,-0.06,9.81,-0.69,-0.34,-0.07,-0.25,4704.20,849.13,0.40,0.00,0.00,0.00
455732356,33.00,5.12,173.25,0.00,10.31,-0.50,-0.39,-0.00,-0.28,4704.20,849.13,0.39,0.00,0.00,0.00
455742358,33.06,5.12,173.25,-0.06,10.88,-0.31,-0.30,-0.05,-0.30,4704.20,849.13,0.40,0.00,0.00,0.00
455752361,33.19,5.12,173.25,0.19,11.12,-0.38,-0.22,-0.06,-0.29,4704.20,849.13,0.38,0.00,0.00,0.00
455762365,33.31,5.12,173.25,0.19,11.31,-0.25,-0.31,-0.21,-0.27,4704.20,849.13,0.40,0.00,0.00,0.00
455772369,33.38,5.12,173.25,0.06,11.56,-0.25,-0.19,-0.22,-0.22,4704.20,849.13,0.42,0.00,0.00,0.00
455782471,33.50,5.12,173.25,-0.31,11.62,-0.31,-0.30,-0.18,-0.24,4704.20,849.13,0.40,0.00,0.00,0.00
455792474,33.62,5.12,173.25,-0.56,11.94,-0.50,-0.49,-0.13,-0.28,4704.20,849.13,0.42,0.00,0.00,0.00
455802479,33.75,5.12,173.25,-0.50,12.19,-1.00,-0.34,0.09,-0.32,4704.20,849.13,0.43,0.00,0.00,0.00
455812483,33.88,5.12,173.25,-0.31,12.69,-1.38,-0.39,0.19,-0.36,4704.20,849.13,0.45,0.00,0.00,0.00
455822487,34.00,5.12,173.25,-0.12,13.31,-1.88,-0.35,0.19,-0.40,4704.20,849.13,0.44,0.00,0.00,0.00
455832490,34.12,5.12,173.25,0.00,13.62,-2.38,0.16,0.15,-0.41,4704.20,849.13,0.47,0.00,0.00,0.000
455842493,34.25,5.12,173.19,0.25,13.62,-2.56,0.14,0.02,-0.41,4704.20,849.13,0.44,0.00,0.00,0.000
455852498,34.38,5.06,173.19,0.56,13.31,-2.62,0.31,-0.08,-0.34,4704.20,849.13,0.44,0.00,0.00,0.00
455862734,34.50,5.06,173.19,0.56,13.00,-2.31,0.33,-0.23,-0.31,4704.20,849.13,0.40,0.00,0.00,0.00
455872739,34.62,5.06,173.12,0.38,12.19,-2.06,0.54,-0.26,-0.34,4704.20,849.13,0.48,0.00,0.00,0.00
455882743,34.75,5.06,173.12,0.50,11.69,-1.62,0.22,-0.30,-0.28,4704.20,849.13,0.48,0.00,0.00,0.00
455892746,34.88,5.06,173.12,0.38,10.94,-1.56,0.38,-0.06,-0.36,4704.20,849.13,0.45,0.00,0.00,0.00
455903433,34.94,5.06,173.12,0.75,10.19,-1.56,0.49,-0.08,-0.34,4704.20,849.13,0.45,0.00,0.00,0.00
455913436,35.06,5.06,173.12,0.88,9.31,-1.69,0.39,-0.10,-0.36,4704.20,849.13,0.42,0.00,0.00,0.00
455923440,35.19,5.00,173.12,1.19,8.50,-1.81,0.39,-0.21,-0.30,4704.20,849.13,0.44,0.00,0.00,0.00
455933442,35.31,5.00,173.06,1.12,7.56,-1.50,0.29,-0.18,-0.32,4704.20,849.13,0.42,0.00,0.00,0.00
455943447,35.38,4.94,173.06,1.25,7.12,-0.88,0.28,-0.27,-0.31,4704.20,849.13,0.38,0.00,0.00,0.00
455953451,35.50,4.94,173.06,0.94,6.69,-0.12,-0.03,-0.12,-0.33,4704.20,849.13,0.39,0.00,0.00,0.00
455963456,35.56,4.94,173.06,1.06,6.56,0.38,-0.04,-0.13,-0.32,4704.20,849.13,0.44,0.00,0.00,-0.00
455975909,35.62,4.94,173.06,1.12,6.56,0.62,-0.23,-0.06,-0.36,4704.20,849.13,0.44,0.00,0.00,-0.00
455985912,35.69,4.94,173.12,1.12,6.88,0.75,-0.34,-0.08,-0.35,4704.20,849.13,0.37,0.00,0.00,-0.00
456001052,35.75,4.88,173.12,1.19,7.69,-0.06,-0.33,-0.18,-0.27,4704.20,849.13,0.42,0.00,0.00,0.00
456011054,35.81,4.88,173.12,1.25,8.19,-0.44,-0.48,-0.29,-0.25,4704.20,849.13,0.39,0.00,0.00,0.00
456024192,36.00,4.88,173.12,1.06,8.56,-0.62,-0.42,-0.24,-0.25,4704.20,849.13,0.42,0.00,0.00,0.00
456034196,36.06,4.88,173.12,0.94,9.06,-0.88,-0.45,-0.12,-0.29,4704.20,849.13,0.42,0.00,0.00,0.00
456045236,36.12,4.88,173.12,0.75,9.38,-1.00,-0.44,-0.04,-0.33,4704.20,849.13,0.45,0.00,0.00,0.00
456055238,36.25,4.81,173.12,0.88,9.94,-1.00,-0.36,-0.04,-0.31,4704.20,849.13,0.42,0.00,0.00,0.00
456065509,36.31,4.81,173.12,0.94,10.50,-1.12,-0.26,-0.03,-0.33,4704.20,849.13,0.45,0.00,0.00,0.00
456075513,36.44,4.81,173.12,1.25,10.62,-1.31,-0.07,-0.20,-0.33,4704.20,849.13,0.40,0.00,0.00,0.00
456085516,36.56,4.81,173.12,1.19,10.69,-1.06,0.09,-0.34,-0.30,4704.20,849.13,0.40,0.00,0.00,0.00
456097476,36.62,4.81,173.12,1.00,10.69,-0.94,0.03,-0.28,-0.36,4704.20,849.13,0.43,0.00,0.00,0.00
456109395,36.75,4.81,173.12,0.69,10.19,-0.50,0.11,-0.33,-0.32,4704.20,849.13,0.40,0.00,0.00,0.00
456122739,36.94,4.81,173.12,0.25,9.88,-0.38,0.21,-0.29,-0.35,4704.20,849.13,0.40,0.00,0.00,0.00
456132743,37.06,4.81,173.12,-0.12,9.56,0.00,-0.19,-0.35,-0.24,4704.20,849.13,0.42,0.00,0.00,0.00
456142972,37.12,4.81,173.12,-0.25,9.31,-0.12,0.45,-0.14,-0.31,4704.20,849.13,0.38,0.00,0.00,0.00
456152977,37.19,4.81,173.12,-0.31,8.81,-0.12,0.40,-0.21,-0.32,4704.20,849.13,0.42,0.00,0.00,0.00
456163234,37.31,4.81,173.12,-0.44,8.38,0.06,0.44,-0.08,-0.37,4704.20,849.13,0.40,0.00,0.00,-0.00
456173238,37.38,4.81,173.12,-0.38,7.56,0.50,0.31,-0.28,-0.32,4704.20,849.13,0.42,0.00,0.00,-0.00
456183241,37.38,4.81,173.12,-0.44,6.88,0.94,0.37,-0.37,-0.28,4704.20,849.13,0.40,0.00,0.00,-0.00
456193245,37.50,4.88,173.19,-0.81,6.50,1.38,0.18,-0.44,-0.30,4704.20,849.13,0.39,0.00,0.00,-0.00
456204534,37.56,4.81,173.12,-1.00,6.00,1.50,0.00,-0.47,-0.26,4704.20,849.13,0.39,0.00,0.00,-0.00
456214536,37.62,4.88,173.19,-1.50,5.75,1.44,-0.13,-0.42,-0.28,4704.20,849.13,0.37,0.00,0.00,-0.00
456224539,37.69,4.88,173.19,-1.94,5.56,0.94,-0.10,-0.36,-0.22,4704.20,849.13,0.42,0.00,0.00,-0.00
456234542,37.75,4.94,173.19,-2.25,5.69,0.44,-0.16,-0.10,-0.24,4704.20,849.13,0.42,0.00,0.00,-0.00
456245025,37.81,4.94,173.19,-2.50,5.69,0.19,-0.25,-0.03,-0.22,4704.20,849.13,0.38,0.00,0.00,-0.00
456255028,37.88,5.00,173.12,-2.56,5.94,0.25,-0.25,-0.02,-0.26,4704.20,849.13,0.39,0.00,0.00,-0.00
456265897,37.94,5.00,173.12,-2.12,6.06,0.19,-0.35,-0.01,-0.25,4704.20,849.13,0.35,0.00,0.00,-0.00
456275901,38.00,5.00,173.12,-2.00,6.69,0.31,-0.60,-0.00,-0.26,4704.20,849.13,0.32,0.00,0.00,-0.00
456288941,38.06,5.06,173.12,-1.94,7.25,0.38,-0.51,-0.04,-0.27,4704.20,849.13,0.35,0.00,0.00,-0.00
456300498,38.12,5.06,173.12,-1.62,8.25,0.19,-0.43,0.02,-0.36,4704.20,849.13,0.39,0.00,0.00,-0.00
456311012,38.25,5.06,173.12,-1.56,9.00,-0.06,-0.12,-0.06,-0.35,4704.20,849.13,0.37,0.00,0.00,0.00
456321939,38.31,5.12,173.12,-1.31,9.44,-0.56,0.05,-0.04,-0.37,4704.20,849.13,0.35,0.00,0.00,0.00
456331943,38.38,5.12,173.12,-1.12,9.62,-0.88,0.11,-0.03,-0.33,4704.20,849.13,0.37,0.00,0.00,0.00
456343196,38.50,5.12,173.12,-0.50,9.38,-0.75,0.18,-0.09,-0.36,4704.20,849.13,0.34,0.00,0.00,0.00
456353199,38.56,5.12,173.12,-0.25,8.62,-0.31,0.20,-0.10,-0.35,4704.20,849.13,0.38,0.00,0.00,0.00
456363432,38.69,5.12,173.12,-0.19,8.06,0.00,-0.02,-0.21,-0.34,4704.20,849.13,0.35,0.00,0.00,0.00
456373434,38.75,5.12,173.12,0.06,7.94,0.50,-0.21,-0.32,-0.31,4704.20,849.13,0.35,0.00,0.00,-0.00
456383438,38.81,5.12,173.12,-0.19,8.06,0.81,-0.19,-0.36,-0.31,4704.20,849.13,0.37,0.00,0.00,-0.00
456393442,38.88,5.19,173.12,-0.31,8.44,1.31,-0.36,-0.38,-0.30,4704.20,849.13,0.39,0.00,0.00,-0.00
456403444,39.00,5.19,173.12,-0.31,8.50,1.50,-0.22,-0.38,-0.30,4704.20,849.13,0.35,0.00,0.00,-0.00
456413448,39.06,5.19,173.19,-0.56,8.75,1.75,0.01,-0.37,-0.31,4704.20,849.13,0.37,0.00,0.00,-0.00
456423451,39.12,5.19,173.19,-1.00,9.12,2.12,0.00,-0.32,-0.32,4704.20,849.13,0.34,0.00,0.00,-0.00
456433454,39.25,5.19,173.19,-1.00,9.12,2.12,0.34,-0.36,-0.40,4704.20,849.13,0.37,0.00,0.00,-0.00
456443456,39.31,5.25,173.25,-1.56,8.62,2.38,0.06,-0.49,-0.36,4704.20,849.13,0.32,0.00,0.00,-0.00
456453458,39.44,5.31,173.25,-2.00,8.12,2.88,-0.42,-0.44,-0.36,4704.20,849.13,0.40,0.00,0.00,-0.00
456463462,39.50,5.31,173.25,-2.31,7.88,2.38,-0.36,-0.18,-0.38,4704.20,849.13,0.34,0.00,0.00,-0.00
456473465,39.56,5.38,173.31,-2.62,7.75,1.69,-0.55,-0.17,-0.36,4704.20,849.13,0.35,0.00,0.00,-0.00
456483579,39.62,5.44,173.31,-2.81,8.19,0.81,-0.81,-0.07,-0.38,4704.20,849.13,0.35,0.00,0.00,-0.00
456493583,39.69,5.50,173.31,-2.75,8.56,-0.31,-0.88,-0.22,-0.34,4704.20,849.13,0.35,0.00,0.00,0.00
456505145,39.88,5.56,173.25,-3.12,9.12,-1.25,-0.65,-0.33,-0.34,4704.20,849.13,0.32,0.00,0.00,0.00
456515148,40.00,5.56,173.25,-3.25,9.81,-1.19,-0.20,-0.37,-0.32,4704.20,849.13,0.34,0.00,0.00,0.00
456526470,40.06,5.62,173.25,-3.56,10.50,-0.88,-0.23,-0.32,-0.35,4704.20,849.13,0.35,0.00,0.00,0.00
456536475,40.19,5.62,173.25,-3.94,10.50,0.00,-0.02,-0.15,-0.38,4704.20,849.13,0.37,0.00,0.00,0.00
456546913,40.31,5.69,173.25,-3.81,10.81,0.94,0.15,-0.11,-0.42,4704.20,849.13,0.37,0.00,0.00,-0.00
456556917,40.38,5.75,173.25,-3.75,10.81,2.00,-0.07,-0.02,-0.41,4704.20,849.13,0.37,0.00,0.00,-0.00
456570177,40.50,5.81,173.25,-3.38,10.94,2.81,-0.05,-0.00,-0.40,4704.20,849.13,0.35,0.00,0.00,-0.00
456580180,40.56,5.88,173.25,-3.06,10.81,3.44,-0.11,-0.05,-0.40,4704.20,849.13,0.34,0.00,0.00,-0.00
456590182,40.69,5.94,173.31,-2.50,10.75,3.69,-0.33,-0.08,-0.38,4704.20,849.13,0.35,0.00,0.00,-0.00
456601167,40.81,6.00,173.31,-2.12,11.12,3.44,-0.09,-0.26,-0.35,4704.20,849.13,0.33,0.00,0.00,-0.00
456611894,40.94,6.06,173.38,-2.12,11.38,2.94,-0.13,-0.18,-0.36,4704.20,849.13,0.35,0.00,0.00,-0.00
456622448,41.00,6.12,173.38,-2.12,11.31,2.62,-0.13,-0.18,-0.36,4704.20,849.13,0.33,0.00,0.00,-0.00
456634534,41.12,6.12,173.38,-2.44,10.81,1.94,0.04,-0.13,-0.34,4704.20,849.13,0.33,0.00,0.00,-0.00
456644538,41.25,6.19,173.44,-2.56,10.25,1.88,-0.26,-0.12,-0.32,4704.20,849.13,0.33,0.00,0.00,-0.00
456655283,41.44,6.25,173.44,-2.69,10.25,1.94,-0.38,-0.12,-0.26,4704.20,849.13,0.37,0.00,0.00,-0.00
456665286,41.56,6.31,173.44,-2.56,10.69,2.00,-0.64,-0.07,-0.22,4704.20,849.13,0.32,0.00,0.00,-0.00
456676005,41.69,6.38,173.44,-2.56,11.00,2.12,-0.83,-0.10,-0.24,4704.20,849.13,0.34,0.00,0.00,-0.00
456686010,41.75,6.44,173.50,-2.50,11.62,1.81,-0.61,-0.09,-0.25,4704.20,849.13,0.33,0.00,0.00,-0.00
456697865,41.88,6.50,173.50,-2.38,12.50,1.50,-0.26,-0.03,-0.30,4704.20,849.13,0.34,0.00,0.00,-0.00
456707870,42.00,6.56,173.50,-2.44,13.25,1.25,-0.07,0.03,-0.38,4704.20,849.13,0.33,0.00,0.00,-0.00
456719314,42.12,6.56,173.50,-2.38,13.44,0.81,0.12,0.11,-0.38,4704.20,849.13,0.32,0.00,0.00,-0.00
456729316,42.25,6.62,173.50,-1.88,13.44,0.50,0.26,0.09,-0.30,4704.20,849.13,0.34,0.00,0.00,-0.00
456739320,42.38,6.62,173.50,-1.56,12.88,0.12,-0.03,0.07,-0.26,4713.45,849.13,0.33,0.00,0.00,-0.00
456750629,42.50,6.69,173.50,-1.00,12.38,-0.25,-0.22,-0.17,-0.20,4713.45,849.13,0.32,0.00,0.00,0.00
456762216,42.62,6.69,173.50,-0.75,12.19,-0.62,-0.18,0.05,-0.28,4713.45,849.13,0.32,0.00,0.00,0.00
456772761,42.75,6.69,173.50,-0.56,11.94,-1.06,-0.18,0.05,-0.28,4713.45,849.13,0.32,0.00,0.00,0.00
456782765,42.88,6.69,173.50,-0.50,11.62,-1.25,0.02,-0.03,-0.25,4713.45,849.13,0.35,0.00,0.00,0.00
456792769,43.00,6.69,173.50,-0.25,11.88,-1.19,0.73,-0.00,-0.38,4713.45,849.13,0.32,0.00,0.00,0.00
456804724,43.12,6.69,173.50,0.50,10.69,0.19,0.74,-0.00,-0.36,4713.45,849.13,0.29,0.00,0.00,-0.00
456814728,43.19,6.69,173.50,1.00,9.69,1.06,0.77,-0.07,-0.33,4713.45,849.13,0.30,0.00,0.00,-0.00
456825953,43.38,6.75,173.50,1.06,8.38,1.19,0.41,-0.12,-0.31,4713.45,849.13,0.30,0.00,0.00,-0.00
456835955,43.44,6.75,173.56,1.31,7.06,1.06,0.31,-0.21,-0.26,4713.45,849.13,0.32,0.00,0.00,-0.00
456846628,43.50,6.75,173.56,1.56,6.19,0.94,0.29,-0.39,-0.28,4713.45,849.13,0.34,0.00,0.00,-0.00
456856631,43.56,6.69,173.56,1.38,5.62,0.44,0.29,-0.41,-0.22,4713.45,849.13,0.33,0.00,0.00,-0.00
456869105,43.62,6.69,173.56,1.00,5.38,0.56,0.32,-0.19,-0.25,4713.45,849.13,0.32,0.00,0.00,-0.00
456879110,43.62,6.69,173.62,0.88,5.00,0.88,0.27,-0.24,-0.25,4713.45,849.13,0.32,0.00,0.00,-0.00
456889113,43.75,6.69,173.62,0.75,4.75,1.19,0.12,-0.15,-0.25,4713.45,849.13,0.33,0.00,0.00,-0.00
456899116,43.81,6.69,173.62,0.62,4.12,1.38,0.02,-0.05,-0.26,4713.45,849.13,0.34,0.00,0.00,-0.00
456909410,43.81,6.75,173.62,0.75,3.81,1.50,-0.18,-0.15,-0.22,4713.45,849.13,0.32,0.00,0.00,-0.00
456921400,43.88,6.75,173.62,0.88,3.75,1.19,-0.38,-0.08,-0.22,4713.45,849.13,0.33,0.00,0.00,-0.00
456931404,43.88,6.75,173.69,1.12,4.12,0.12,-0.48,-0.09,-0.21,4713.45,849.13,0.33,0.00,0.00,-0.00
456941406,43.94,6.69,173.69,1.12,4.12,0.12,-0.52,-0.18,-0.22,4713.45,849.13,0.29,0.00,0.00,-0.00
456952646,44.00,6.69,173.69,1.25,4.69,-0.25,-0.72,-0.14,-0.23,4713.45,849.13,0.33,0.00,0.00,0.00
456965191,44.06,6.69,173.69,0.88,6.75,-0.69,-0.48,-0.15,-0.21,4713.45,849.13,0.33,0.00,0.00,0.00
456975196,44.12,6.69,173.69,0.88,6.75,-0.69,-0.35,-0.08,-0.26,4713.45,849.13,0.29,0.00,0.00,0.00
456985496,44.19,6.69,173.69,0.69,7.75,-0.19,-0.31,-0.07,-0.31,4713.45,849.13,0.32,0.00,0.00,0.00
456995500,44.25,6.69,173.69,0.94,8.19,0.44,-0.06,-0.16,-0.32,4713.45,849.13,0.33,0.00,0.00,-0.00
457005504,44.31,6.69,173.69,0.94,8.38,0.75,0.11,-0.26,-0.28,4713.45,849.13,0.33,0.00,0.00,-0.00
457015507,44.44,6.69,173.69,0.81,7.69,0.94,0.23,-0.33,-0.24,4713.45,849.13,0.32,0.00,0.00,-0.00
457025510,44.50,6.69,173.75,0.81,7.69,0.94,0.61,-0.42,-0.26,4713.45,849.13,0.33,0.00,0.00,-0.00
457035513,44.56,6.75,173.75,0.44,7.19,1.38,0.71,-0.41,-0.28,4713.45,849.13,0.32,0.00,0.00,-0.00
457045516,44.62,6.75,173.75,-0.19,4.81,2.44,0.83,-0.34,-0.29,4713.45,849.13,0.33,0.00,0.00,-0.00
457055519,44.62,6.81,173.81,-0.50,3.31,2.56,1.00,-0.29,-0.31,4713.45,849.13,0.32,0.00,0.00,-0.00
457065522,44.69,6.81,173.81,-0.31,1.50,2.38,1.30,-0.26,-0.32,4713.45,849.13,0.33,0.00,0.00,-0.00
457075524,44.69,6.81,173.81,-0.31,1.50,2.38,1.46,-0.25,-0.31,4713.45,849.13,0.32,0.00,0.00,-0.00
457085528,44.69,6.88,173.88,-0.56,-0.50,2.56,1.28,-0.45,-0.19,4713.45,849.13,0.34,0.00,0.00,-0.00
457095531,44.69,6.88,173.88,-1.31,-4.56,2.19,1.31,-0.48,-0.20,4713.45,849.13,0.34,0.00,0.00,-0.00
457105535,44.62,6.94,173.88,-1.56,-6.62,2.00,1.31,-0.37,-0.17,4713.45,849.13,0.34,0.00,0.00,-0.00
457115539,44.56,6.94,173.94,-1.75,-8.62,1.31,1.25,-0.37,-0.20,4713.45,849.13,0.33,0.00,0.00,-0.00
457125542,44.44,6.94,173.94,-1.75,-8.62,1.31,1.30,-0.46,-0.22,4713.45,849.13,0.33,0.00,0.00,-0.00
457135571,44.38,7.00,173.94,-2.00,-10.56,0.69,1.36,-0.32,-0.24,4713.45,849.13,0.33,0.00,0.00,-0.00
457145576,44.44,6.94,173.88,-2.62,-14.81,0.44,1.31,-0.24,-0.24,4713.45,849.13,0.34,0.00,0.00,-0.00
457159220,44.50,6.81,173.75,-2.62,-16.88,0.31,1.12,-0.12,-0.22,4713.45,849.13,0.32,0.00,0.00,-0.00
457169225,44.31,6.81,173.75,-2.56,-18.50,-0.06,0.97,-0.02,-0.21,4713.45,849.13,0.33,0.00,0.00,0.00
457181924,44.12,6.81,173.75,-2.38,-19.94,-0.31,0.94,-0.10,-0.23,4713.45,849.13,0.33,0.00,0.00,0.00
457191927,43.88,6.81,173.69,-2.12,-21.56,-0.25,0.80,-0.07,-0.16,4713.45,849.13,0.34,0.00,0.00,0.00
457203338,43.69,6.81,173.69,-1.94,-22.75,-0.25,0.76,-0.17,-0.19,4713.45,849.13,0.34,0.00,0.00,0.00
457215020,43.44,6.81,173.69,-2.06,-23.75,0.06,0.60,-0.10,-0.17,4713.45,849.13,0.32,0.00,0.00,-0.00
457225151,43.19,6.81,173.62,-1.81,-25.19,0.56,0.60,-0.10,-0.17,4713.45,849.13,0.34,0.00,0.00,-0.00
457235153,42.94,6.81,173.62,-1.69,-25.62,1.31,0.39,-0.01,-0.16,4713.45,849.13,0.35,0.00,0.00,-0.00
457245156,42.69,6.81,173.62,-1.38,-26.50,1.81,0.13,0.15,-0.18,4713.45,849.13,0.33,0.00,0.00,-0.00
457255159,42.44,6.81,173.62,-1.00,-26.88,2.44,0.00,0.07,-0.13,4713.45,849.13,0.34,0.00,0.00,-0.00
457265436,42.19,6.81,173.69,-0.62,-26.88,2.75,0.05,-0.02,-0.16,4713.45,849.13,0.34,0.00,0.00,-0.00
457276215,41.94,6.81,173.69,-0.31,-26.81,2.81,-0.13,-0.21,-0.16,4713.45,849.13,0.34,0.00,0.00,-0.0
457286218,41.69,6.81,173.69,-0.12,-27.00,2.75,0.00,-0.18,-0.20,4713.45,849.13,0.34,0.00,0.00,-0.00
457296652,41.38,6.81,173.69,-0.19,-27.38,2.62,0.01,-0.29,-0.17,4713.45,849.13,0.34,0.00,0.00,-0.00
457306657,41.12,6.81,173.69,-0.44,-27.50,2.56,-0.21,-0.14,-0.16,4713.45,849.13,0.34,0.00,0.00,-0.0
457318656,40.56,6.75,173.75,-0.56,-27.69,2.75,-0.10,0.03,-0.16,4713.45,849.13,0.35,0.00,0.00,-0.00
457328659,40.31,6.75,173.75,-0.56,-27.56,2.69,-0.05,0.04,-0.15,4713.45,849.13,0.37,0.00,0.00,-0.00
457338664,40.06,6.75,173.75,-0.31,-27.38,3.00,-0.30,0.16,-0.28,4713.45,849.13,0.39,0.00,0.00,-0.00
457348666,39.81,6.75,173.81,0.12,-26.88,3.50,-0.27,0.18,-0.30,4713.45,849.13,0.39,0.00,0.00,-0.00
457359634,39.56,6.75,173.81,0.62,-26.25,3.75,-0.24,0.11,-0.31,4713.45,849.13,0.34,0.00,0.00,-0.00
457369637,39.25,6.75,173.81,0.88,-26.19,3.75,-0.39,0.12,-0.29,4713.45,849.13,0.35,0.00,0.00,-0.00
457380133,39.00,6.75,173.88,1.19,-25.81,3.06,-0.49,-0.05,-0.20,4713.45,849.13,0.39,0.00,0.00,-0.00
457390135,38.75,6.75,173.88,1.38,-25.38,2.31,-0.55,-0.01,-0.18,4713.45,849.13,0.35,0.00,0.00,-0.00
457401564,38.56,6.69,173.88,1.38,-25.12,0.94,-0.49,-0.06,-0.23,4713.45,849.13,0.43,0.00,0.00,-0.00
457412279,38.31,6.69,173.88,1.44,-25.25,0.12,-0.26,-0.06,-0.24,4713.45,849.13,0.39,0.00,0.00,-0.00
457426559,38.06,6.62,173.88,1.44,-25.44,-0.31,-0.02,-0.14,-0.23,4713.45,849.13,0.37,0.00,0.00,0.00
457436564,37.81,6.62,173.88,1.25,-25.44,-0.31,0.09,-0.09,-0.24,4713.45,849.13,0.35,0.00,0.00,0.00
457448585,37.31,6.50,173.81,1.19,-26.88,0.56,0.19,-0.18,-0.32,4713.45,849.13,0.44,0.00,0.00,-0.00
457458588,37.00,6.50,173.81,1.12,-27.38,0.81,0.05,-0.02,-0.31,4713.45,849.13,0.38,0.00,0.00,-0.00
457469438,36.75,6.50,173.81,1.19,-28.19,0.81,0.12,-0.09,-0.33,4713.45,849.13,0.40,0.00,0.00,-0.00
457479441,36.50,6.44,173.81,1.31,-28.81,1.06,0.31,-0.22,-0.35,4713.45,849.13,0.47,0.00,0.00,-0.00
457489446,36.50,6.44,173.81,1.19,-29.19,1.44,0.34,-0.21,-0.33,4713.45,849.13,0.43,0.00,0.00,-0.00
457499450,36.06,6.38,173.81,0.88,-29.81,2.19,0.52,-0.35,-0.39,4713.45,849.13,0.40,0.00,0.00,-0.00
457509455,35.75,6.31,173.81,0.62,-30.38,2.50,0.62,-0.43,-0.37,4713.45,849.13,0.39,0.00,0.00,-0.00
457519459,35.44,6.31,173.88,0.12,-31.12,3.06,0.59,-0.53,-0.32,4713.45,849.13,0.38,0.00,0.00,-0.00
457529464,35.44,6.31,173.88,-0.50,-31.94,3.62,0.60,-0.58,-0.28,4713.45,849.13,0.40,0.00,0.00,-0.00
457539467,34.81,6.38,173.88,-1.12,-32.56,3.88,0.59,-0.65,-0.19,4713.45,849.13,0.45,0.00,0.00,-0.00
457549889,34.50,6.38,173.88,-2.00,-33.12,4.56,0.48,-0.54,-0.25,4713.45,849.13,0.43,0.00,0.00,-0.00
457559924,34.19,6.44,173.94,-2.69,-33.81,4.75,0.42,-0.37,-0.28,4713.45,849.13,0.43,0.00,0.00,-0.00
457571323,33.81,6.44,173.94,-2.94,-34.44,5.00,0.47,-0.24,-0.31,4713.45,849.13,0.42,0.00,0.00,-0.00
457581327,33.50,6.50,174.00,-3.12,-35.25,5.19,0.24,0.02,-0.35,4713.45,849.13,0.40,0.00,0.00,-0.00
457592783,33.12,6.50,174.00,-2.88,-36.00,5.12,0.27,0.06,-0.35,4713.45,849.13,0.39,0.00,0.00,-0.00
457602962,32.75,6.56,174.00,-2.81,-36.75,5.06,0.19,-0.00,-0.33,4713.45,849.13,0.43,0.00,0.00,-0.00
457613839,32.38,6.56,174.06,-2.62,-37.19,4.56,0.05,-0.04,-0.32,4713.45,849.13,0.40,0.00,0.00,-0.00
457625468,32.06,6.62,174.06,-2.62,-37.38,4.00,-0.11,-0.07,-0.30,4713.45,849.13,0.44,0.00,0.00,-0.0
457635473,31.69,6.62,174.06,-2.56,-37.81,3.31,-0.11,-0.09,-0.29,4713.45,849.13,0.47,0.00,0.00,-0.0
457645477,31.31,6.62,174.06,-2.56,-38.31,2.56,0.09,-0.06,-0.37,4713.45,849.13,0.48,0.00,0.00,-0.00
457656536,30.94,6.62,174.06,-2.62,-38.69,1.94,0.05,-0.01,-0.39,4713.45,849.13,0.48,0.00,0.00,-0.00
457667066,30.56,6.62,174.06,-2.62,-39.00,1.69,0.11,-0.02,-0.41,4713.45,849.13,0.47,0.00,0.00,-0.00
457678587,30.19,6.69,174.00,-2.38,-39.38,1.56,0.00,0.08,-0.43,4713.45,849.13,0.48,0.00,0.00,-0.00
457688590,29.81,6.69,174.00,-2.38,-39.62,1.62,-0.17,0.04,-0.37,4713.45,849.13,0.45,0.00,0.00,-0.00
457698594,29.44,6.69,174.00,-2.19,-39.44,1.75,-0.40,-0.03,-0.34,4713.45,849.13,0.50,0.00,0.00,-0.0
457708596,29.06,6.69,174.00,-1.94,-39.06,1.38,-0.40,-0.09,-0.34,4713.45,849.13,0.50,0.00,0.00,-0.0
457719683,28.69,6.69,173.94,-2.06,-38.69,1.31,-0.39,-0.11,-0.33,4713.45,849.13,0.51,0.00,0.00,-0.0
457729687,28.31,6.69,173.94,-2.06,-37.81,1.00,-0.47,-0.10,-0.31,4713.45,849.13,0.50,0.00,0.00,-0.0
457739747,27.94,6.69,173.94,-2.00,-37.25,0.69,-0.30,-0.11,-0.27,4713.45,849.13,0.52,0.00,0.00,-0.0
457749752,27.56,6.69,173.94,-2.19,-37.00,0.38,-0.22,-0.12,-0.28,4713.45,849.13,0.52,0.00,0.00,-0.0
457759755,27.19,6.69,173.88,-2.38,-36.50,0.12,-0.26,-0.04,-0.26,4713.45,849.13,0.53,0.00,0.00,-0.0
457769758,26.88,6.69,173.88,-2.19,-36.69,-0.25,-0.30,-0.00,-0.27,4713.45,849.13,0.51,0.00,0.00,0.0
457779762,26.50,6.69,173.88,-2.31,-36.56,-0.12,-0.24,0.09,-0.26,4713.45,849.13,0.53,0.00,0.00,0.00
457789764,26.12,6.69,173.81,-2.31,-36.25,0.00,-0.20,0.06,-0.26,4713.44,849.13,0.52,0.00,0.00,0.00
457799768,25.81,6.69,173.81,-2.25,-36.25,0.25,-0.24,-0.00,-0.30,4713.44,849.13,0.56,0.00,0.00,-0.0
457809773,25.44,6.69,173.75,-2.19,-36.25,0.38,-0.11,0.03,-0.31,4713.44,849.13,0.60,0.00,0.00,-0.00
457819789,25.12,6.69,173.75,-2.00,-36.06,0.44,-0.16,0.03,-0.34,4713.44,849.13,0.59,0.00,0.00,-0.00
457829793,24.75,6.69,173.69,-2.00,-36.06,0.44,-0.21,0.03,-0.35,4713.44,849.13,0.58,0.00,0.00,-0.00
457839797,24.44,6.69,173.69,-1.81,-36.44,0.50,-0.15,0.07,-0.34,4713.44,849.13,0.62,0.00,0.00,-0.00
457849799,24.06,6.69,173.69,-1.62,-36.25,0.50,-0.06,-0.05,-0.29,4713.44,849.13,0.60,0.00,0.00,-0.0
457859822,23.69,6.69,173.62,-1.81,-36.25,0.81,-0.28,-0.15,-0.24,4713.44,849.13,0.61,0.00,0.00,-0.0
457869825,23.38,6.69,173.62,-1.88,-36.12,1.12,-0.24,-0.16,-0.31,4713.44,849.13,0.63,0.00,0.00,-0.0
457879840,23.00,6.69,173.62,-2.00,-36.00,1.19,-0.22,-0.08,-0.34,4713.44,849.13,0.64,0.00,0.00,-0.0
457889843,22.69,6.69,173.56,-2.25,-35.69,1.56,-0.29,-0.00,-0.40,4713.44,849.13,0.66,0.00,0.00,-0.0
457899859,22.31,6.75,173.56,-2.19,-35.50,1.88,-0.32,0.09,-0.46,4713.44,849.13,0.69,0.00,0.00,-0.00
457912135,21.62,6.75,173.50,-2.00,-35.12,2.06,-0.22,0.14,-0.45,4713.44,849.13,0.73,0.00,0.00,-0.00
457922139,21.31,6.75,173.50,-1.94,-35.06,2.31,-0.33,0.19,-0.43,4713.44,849.13,0.83,0.00,0.00,-0.00
457932141,20.94,6.75,173.50,-1.88,-34.38,2.00,-0.65,0.20,-0.42,4713.44,849.13,1.02,0.00,0.00,-0.00
457942145,20.62,6.81,173.50,-1.69,-34.19,1.56,-0.27,0.16,-0.50,4713.44,849.13,1.14,0.00,0.00,-0.00
457952651,20.31,6.81,173.50,-1.50,-34.06,0.75,-0.65,0.13,-0.44,4713.44,849.13,1.22,0.00,0.00,-0.00
457962654,20.00,6.81,173.50,-1.19,-33.75,-0.19,-0.46,0.22,-0.45,4713.44,849.13,1.29,0.00,0.00,0.00
457972658,19.69,6.75,173.44,-0.94,-33.62,-1.12,-0.42,0.24,-0.41,4713.44,849.13,1.32,0.00,0.00,0.00
457982662,19.38,6.75,173.44,-0.81,-32.94,-1.50,-0.34,0.34,-0.44,4713.44,849.13,1.33,0.00,0.00,0.00
457992665,19.00,6.81,173.38,-0.69,-32.44,-1.44,-0.54,0.47,-0.48,4713.44,849.13,1.34,0.00,0.00,0.00
458002668,18.69,6.81,173.38,-0.25,-32.25,-1.50,-0.47,0.43,-0.48,4713.44,849.13,1.34,0.00,0.00,0.00
458012671,18.38,6.88,173.38,0.19,-31.81,-1.31,-0.41,0.31,-0.41,4713.44,849.13,1.34,0.00,0.00,0.00
458022675,18.06,6.81,173.31,0.62,-31.25,-1.25,-0.45,0.28,-0.41,4713.44,849.13,1.35,0.00,0.00,0.00
458032678,17.75,6.81,173.31,1.12,-30.44,-0.88,-0.36,0.25,-0.39,4713.44,849.13,1.34,0.00,0.00,0.00
458042681,17.50,6.81,173.31,1.50,-29.75,-0.56,-0.35,0.13,-0.37,4713.44,849.13,1.33,0.00,0.00,0.00
458052684,17.19,6.75,173.25,1.44,-29.38,0.06,-0.37,0.12,-0.37,4713.44,849.13,1.33,0.00,0.00,-0.00
458062687,16.88,6.75,173.25,1.56,-29.00,0.50,-0.37,0.03,-0.35,4713.44,849.13,1.33,0.00,0.00,-0.00
458072691,16.62,6.75,173.25,1.56,-28.50,0.31,-0.27,0.03,-0.36,4713.44,849.13,1.33,0.00,0.00,-0.00
458083142,16.31,6.69,173.25,1.44,-28.19,0.19,-0.05,-0.07,-0.35,4713.44,849.13,1.33,0.00,0.00,-0.00
458093147,16.06,6.69,173.25,1.25,-28.56,-0.06,-0.08,0.03,-0.31,4713.44,849.13,1.33,0.00,0.00,0.00
458104966,15.81,6.69,173.19,1.00,-28.50,0.06,-0.09,0.02,-0.33,4713.44,849.13,1.33,0.00,0.00,-0.00
458114970,15.50,6.69,173.19,1.00,-28.44,0.56,-0.21,0.04,-0.35,4713.44,849.13,1.32,0.00,0.00,-0.00
458124972,15.25,6.62,173.19,0.88,-28.62,0.69,-0.39,0.15,-0.38,4713.44,849.13,1.33,0.00,0.00,-0.00
458134974,14.94,6.62,173.12,1.12,-27.94,0.81,-0.44,0.20,-0.33,4713.44,849.13,1.32,0.00,0.00,-0.00
458144977,14.69,6.62,173.12,1.56,-27.50,0.81,-0.39,0.25,-0.32,4713.44,849.13,1.32,0.00,0.00,-0.00
458154981,14.44,6.56,173.12,1.81,-26.94,0.94,-0.35,0.35,-0.34,4713.44,849.13,1.31,0.00,0.00,-0.00
458166746,14.19,6.56,173.12,2.00,-26.50,1.38,-0.29,0.23,-0.33,4713.44,849.13,1.32,0.00,0.00,-0.00
458178082,13.94,6.56,173.12,2.25,-26.12,1.88,-0.18,0.14,-0.27,4713.44,849.13,1.32,0.00,0.00,-0.00
458188413,13.69,6.50,173.12,2.25,-25.88,2.56,-0.22,0.06,-0.26,4713.44,849.13,1.31,0.00,0.00,-0.00
458198420,13.44,6.50,173.12,2.38,-25.81,2.56,-0.27,0.01,-0.23,4713.44,849.13,1.31,0.00,0.00,-0.00
458210450,13.12,6.50,173.12,2.19,-25.88,2.31,-0.38,0.21,-0.28,4713.44,849.13,1.32,0.00,0.00,-0.00
458220453,12.88,6.50,173.12,2.06,-25.75,1.88,-0.21,0.22,-0.29,4713.44,849.13,1.31,0.00,0.00,-0.00
458232497,12.38,6.44,173.19,2.38,-25.69,1.25,-0.03,0.18,-0.30,4713.44,849.13,1.31,0.00,0.00,-0.00
458242500,12.12,6.44,173.19,2.44,-25.56,1.00,0.09,0.19,-0.33,4713.44,849.13,1.31,0.00,0.00,-0.00
458252503,11.88,6.38,173.19,2.75,-26.19,0.75,0.10,0.15,-0.32,4713.44,849.13,1.31,0.00,0.00,-0.00
458262513,11.62,6.38,173.19,2.75,-26.56,0.56,0.24,0.06,-0.27,4713.44,849.13,1.31,0.00,0.00,-0.00
458272516,11.44,6.38,173.19,2.94,-27.06,0.50,0.28,-0.00,-0.26,4713.44,849.13,1.31,0.00,0.00,-0.00
458282519,11.12,6.31,173.19,2.69,-27.56,1.06,0.07,0.04,-0.21,4713.44,849.13,1.31,0.00,0.00,-0.00
458292522,10.88,6.31,173.19,2.44,-28.06,1.19,0.07,0.07,-0.26,4713.44,849.13,1.32,0.00,0.00,-0.00
458303008,10.62,6.31,173.19,2.25,-28.44,1.25,0.06,0.10,-0.29,4713.44,849.13,1.31,0.00,0.00,-0.00
458313011,10.38,6.25,173.19,2.44,-28.62,1.06,0.01,0.17,-0.29,4713.44,849.13,1.30,0.00,0.00,-0.00
458324254,10.06,6.25,173.19,2.56,-28.81,0.94,-0.06,0.13,-0.31,4713.44,849.13,1.30,0.00,0.00,-0.00
458334258,9.81,6.19,173.19,2.62,-28.81,1.00,-0.05,0.19,-0.33,4713.44,849.13,1.32,0.00,0.00,-0.00
458346687,9.50,6.19,173.19,2.81,-28.94,1.12,-0.18,0.15,-0.35,4713.44,849.13,1.32,0.00,0.00,-0.00
458356819,9.25,6.12,173.19,2.81,-29.00,1.38,-0.24,0.15,-0.36,4713.44,849.13,1.31,0.00,0.00,-0.00
458368112,8.94,6.12,173.19,2.75,-28.56,1.19,-0.13,0.10,-0.32,4713.44,849.13,1.31,0.00,0.00,-0.00
458379196,8.69,6.06,173.19,2.75,-28.25,0.94,-0.26,0.07,-0.27,4713.44,849.13,1.31,0.00,0.00,-0.00
458389199,8.44,6.06,173.19,2.62,-27.94,0.56,-0.10,0.11,-0.25,4713.44,849.13,1.31,0.00,0.00,-0.00
458399201,8.12,6.00,173.19,2.56,-27.94,0.31,-0.21,0.08,-0.25,4713.44,849.13,1.31,0.00,0.00,-0.00
458409835,7.88,6.00,173.19,2.56,-27.75,0.81,-0.19,0.08,-0.24,4713.44,849.13,1.31,0.00,0.00,-0.00
458422362,7.62,6.00,173.12,2.50,-27.75,1.06,-0.20,-0.05,-0.23,4713.44,849.13,1.31,0.00,0.00,-0.00
458432365,7.31,5.94,173.12,2.50,-27.75,1.06,-0.17,0.01,-0.22,4713.44,849.13,1.31,0.00,0.00,-0.00
458442841,7.06,5.94,173.12,2.62,-27.50,0.94,-0.19,0.04,-0.24,4713.44,849.13,1.31,0.00,0.00,-0.00
458452844,6.81,5.88,173.12,2.44,-27.38,0.88,-0.24,-0.01,-0.22,4713.44,849.13,1.32,0.00,0.00,-0.00
458463094,6.25,5.81,173.12,2.31,-27.12,1.12,-0.25,0.07,-0.24,4713.44,849.13,1.31,0.00,0.00,-0.00
458473098,6.25,5.81,173.12,2.00,-27.12,1.12,-0.27,0.11,-0.26,4713.44,849.13,1.32,0.00,0.00,-0.00
458483102,6.00,5.81,173.12,1.94,-26.56,1.38,-0.37,0.17,-0.24,4713.44,849.13,1.31,0.00,0.00,-0.00
458493235,5.75,5.81,173.12,2.12,-26.38,1.44,-0.38,0.15,-0.30,4713.44,849.13,1.32,0.00,0.00,-0.00
458503237,5.50,5.75,173.12,2.44,-26.12,1.31,-0.32,0.17,-0.28,4713.44,849.13,1.31,0.00,0.00,-0.00
458513707,5.00,5.75,173.12,2.50,-25.75,1.69,-0.49,0.13,-0.26,4713.44,849.13,1.31,0.00,0.00,-0.00
458523709,4.75,5.69,173.12,2.69,-25.19,1.81,-0.52,0.07,-0.26,4713.44,849.13,1.31,0.00,0.00,-0.00
458535319,4.50,5.69,173.00,2.69,-24.94,1.31,-0.37,0.04,-0.23,4713.44,849.13,1.31,0.00,0.00,-0.00
458545323,4.25,5.62,173.00,2.62,-24.88,0.75,-0.37,0.05,-0.25,4713.44,849.13,1.32,0.00,0.00,-0.00
458557797,4.00,5.62,173.00,2.44,-24.50,0.50,-0.36,0.04,-0.27,4713.44,849.13,1.32,0.00,0.00,-0.00
458568119,3.75,5.62,172.94,2.44,-24.44,-0.06,-0.18,0.03,-0.26,4713.44,849.13,1.31,0.00,0.00,0.00
458581274,3.50,5.56,172.94,2.44,-24.38,0.06,-0.15,-0.02,-0.19,4713.44,849.13,1.31,0.00,0.00,-0.00
458591277,3.25,5.56,172.94,2.25,-24.12,0.75,-0.31,0.07,-0.22,4713.44,849.13,1.31,0.00,0.00,-0.00
458601281,3.00,5.56,172.94,2.12,-24.00,0.88,-0.37,0.07,-0.23,4713.44,849.13,1.32,0.00,0.00,-0.00
458611284,2.75,5.50,172.94,2.25,-23.62,0.69,-0.32,0.16,-0.36,4713.44,849.13,1.32,0.00,0.00,-0.00
458622144,2.56,5.50,172.94,2.25,-22.88,0.06,-0.26,0.03,-0.33,4713.44,849.13,1.32,0.00,0.00,-0.00
458632147,2.31,5.50,172.94,2.25,-22.88,0.06,-0.04,-0.05,-0.30,4713.44,849.13,1.32,0.00,0.00,-0.00
458644972,1.88,5.44,172.81,2.38,-22.38,-0.38,0.13,-0.17,-0.31,4713.44,849.13,1.32,0.00,0.00,0.00
458655520,1.69,5.44,172.81,2.06,-22.75,-0.31,0.33,-0.32,-0.28,4713.44,849.13,1.33,0.00,0.00,0.00
458665524,1.44,5.38,172.81,1.88,-23.12,-0.12,0.23,-0.33,-0.28,4713.44,849.13,1.32,0.00,0.00,0.00
458675528,1.25,5.38,172.81,1.31,-23.50,0.19,0.12,-0.22,-0.24,4713.44,849.13,1.32,0.00,0.00,-0.00
458685532,1.00,5.38,172.75,0.81,-23.94,0.38,0.03,-0.20,-0.23,4713.44,849.13,1.32,0.00,0.00,-0.00
458695534,0.75,5.38,172.75,0.44,-24.00,0.88,-0.08,-0.06,-0.24,4713.44,849.13,1.31,0.00,0.00,-0.00
458705537,0.50,5.38,172.75,0.00,-24.00,0.81,-0.12,-0.00,-0.22,4713.44,849.13,1.32,0.00,0.00,-0.00
458715542,0.31,5.38,172.75,-0.12,-24.00,0.62,-0.04,0.02,-0.26,4713.44,849.13,1.31,0.00,0.00,-0.00
458725546,0.06,5.38,172.75,-0.12,-23.94,0.50,0.00,0.07,-0.23,4713.44,849.13,1.32,0.00,0.00,-0.00
458735549,-0.12,5.38,172.69,0.06,-24.12,0.69,-0.12,0.09,-0.20,4713.44,849.13,1.32,0.00,0.00,-0.00
458746666,-0.31,5.38,172.69,-0.19,-23.94,1.19,-0.13,0.18,-0.17,4713.44,849.13,1.32,0.00,0.00,-0.00
458756669,-0.56,5.38,172.69,-0.19,-23.81,1.75,-0.26,0.18,-0.10,4713.44,849.13,1.34,0.00,0.00,-0.00
458766672,-0.81,5.38,172.69,0.00,-23.88,2.12,-0.40,0.40,-0.08,4713.44,849.13,1.33,0.00,0.00,-0.00
458776677,-1.00,5.38,172.75,-0.06,-23.56,1.94,-0.50,0.62,-0.11,4713.44,849.13,1.33,0.00,0.00,-0.00
458786681,-1.25,5.38,172.69,0.50,-23.00,1.56,-0.45,0.74,-0.13,4713.44,849.13,1.34,0.00,0.00,-0.00
458796684,-1.44,5.38,172.62,1.44,-22.62,0.50,-0.23,0.47,-0.04,4713.44,849.13,1.34,0.00,0.00,-0.00
458806689,-1.69,5.31,172.62,2.12,-22.31,-0.06,0.15,0.48,-0.09,4713.44,849.13,1.34,0.00,0.00,0.00
458816692,-1.88,5.31,172.62,2.69,-22.12,-0.62,0.33,0.26,0.00,4713.44,849.13,1.33,0.00,0.00,0.00
458826696,-2.12,5.31,172.62,3.31,-22.25,-1.25,0.60,0.18,0.00,4713.44,849.13,1.34,0.00,0.00,0.00
458836699,-2.31,5.25,172.56,3.44,-23.12,-1.44,0.55,0.29,-0.08,4713.44,849.13,1.35,0.00,0.00,0.00
458846748,-2.56,5.19,172.56,3.75,-23.81,-1.88,0.70,-0.00,0.01,4713.44,849.13,1.34,0.00,0.00,0.00
458856750,-2.81,5.19,172.50,4.12,-24.94,-1.81,0.91,0.10,0.01,4713.44,849.13,1.35,0.00,0.00,0.00
458866754,-3.06,5.12,172.50,3.62,-26.38,-1.88,0.97,0.24,-0.03,4713.44,849.13,1.34,0.00,0.00,0.00
458876758,-3.31,5.12,172.44,3.62,-27.75,-2.00,1.00,0.02,0.06,4713.44,849.13,1.34,0.00,0.00,0.00
458886761,-3.62,5.06,172.31,3.44,-29.31,-2.00,0.73,0.18,-0.08,4713.44,849.13,1.34,0.00,0.00,0.00
458896766,-3.88,5.06,172.31,3.12,-31.06,-2.75,0.91,0.25,-0.13,4713.44,849.13,1.35,0.00,0.00,0.00
